{
	"items": [
		{
			"type": "marker",
			"name": "Kansas City",
			"latitude": "39.116592",
			"longitude": "-94.55002",
			"time": "11/18 - 11/20, 2017",
			"info": "Missouri，Joel讀書的地方，而Kansas City就剛好介於Missouri和Kansas的邊界上，在這裡和他玩了三天，去了這裡的美術館，然後逛完後，找了一個想畫的地方就坐在那裡寫生，從沒在美術館寫生過，是個很特別的經驗，也逛了第一次世界大戰博物館，聽他和我用英文解釋了一堆WW1的事情，才發覺我歷史真的忘得差不多了，反觀他卻記得一清二楚，真有點佩服！最後也約了Kendyl在咖啡廳，和他們聊了天，雖然我主要還是做個聽眾，不過在快要離開美國時，還能跟他們見上一面真的很棒，因為沒有人會知道下次再相遇會是何時。"
		},
		{
			"type": "marker",
			"name": "Boston",
			"latitude": "42.359438",
			"longitude": "-71.058182",
			"time": "11/14 - 11/18, 2017",
			"info": "真正的一個人的旅行，在Vermont的寒風中，冷冷的等著遲到的巴士，遇到了往同一方向的陌生人，因為目的相似而聊起天來，從陌生到熟悉原來只有一線之隔。</br>抵達波士頓時早已天黑，一個人看著地圖朝著背包客棧出發，一個人的街道很靜。在這裡的我，租了一台腳踏車，四處晃蕩，偶爾漫無目的，探索著這個未知的城市，看了哈佛、麻省理工，逛了教堂、圖書館和市集，再到港口邊看著天際線吹著冷冷的風，享受著這一個人的時光。"
		},
		{
			"type": "marker",
			"name": "Yellow Stone",
			"latitude": "44.5844248",
			"longitude": "-111.074487",
			"time": "",
			"info": "黃石國家公園，是美國第一個國家公園。期待了以九，終於可以登門造訪！前一天還聽說了這裡下雪，期待能看到雪景，雖然不是遍佈，但也是讓我第一次真正的摸到了雪，原來他的觸感是如此的柔軟。不過有雪就代表天氣真的有一定的低溫，真的好冷，偶爾把手套拿掉，都覺得手不是自己的了。大稜鏡溫泉真的很美，可是他很大又冒著煙，真的很難看到全景，不過能看到出現在課本裡的景象，感覺真的很不一樣。"
		},
		{
			"type": "marker",
			"name": "Badlands",
			"latitude": "43.6830557",
			"longitude": "-102.6622589",
			"time": "6/14 - 9/30, 2017",
			"info": "南達科他州惡地國家公園，在美國待著最久的地方，也是我們的起點，從一開始看到貨櫃屋的錯愕到最後的歸屬感，點點滴滴都是珍貴的回憶。在這裡遇見了很多人，開了很多party，因為要介紹亞洲所以一群人做出了水餃；因為懷念中國菜，一群人再自己動手做出了火鍋，一起歡送第一個走的糖糖。</br>在這裡因為Joel，我第一次看到了北美大野牛；因為David，無聊的工作都變得有趣，他教會了我很多事情，也帶我們看到了惡地漂亮的景色，原來應該在廚房工作的我，很慶幸地繼續當了House Keeper，賺的錢或許沒有比較多，但卻看得更多、玩得更多。在這裡沒有城市的喧囂，但多了滿天片野的星空；在這裡沒有收訊良好的網路，所以學會了自己尋找樂趣，和大家在夜晚時到商店前畫畫、聊天蹭網路；在所謂的‘交易廳’和Joel一起看電影；在這裡也沒有便捷的交通，所以偶爾一次的Walmart購物都變得有趣無比。在這個無聊的Circle 10學會了如何生活的有趣。</br>但這裡的工作卻一點都不有趣，根本就是一成不變，但因為有了大家的陪伴一切都變得不同，每天都在想著怎麼進Inn吃吃喝喝，怎麼樣才可以快快的把小木屋掃完又不被偷懶的外國人分派不屬於我們的工作，怎麼快速的折完床單讓大家一起躺在大桌子上睡覺耍廢。</br>3個月的時間說長不長說短不短，我只知道在最後一個暑假裡，我活得很不一樣，開心過、流淚過，憤怒過，一切的一切都變成了現在最美好的回憶。"
		},
		{
			"type": "marker",
			"name": "Grand Teton",
			"latitude": "43.7473342",
			"longitude": "-110.7986985",
			"time": "",
			"info": ""
		},
		{
			"type": "marker",
			"name": "Grand Canyon",
			"latitude": "36.0911046",
			"longitude": "-113.4035855",
			"time": "",
			"info": ""
		},
		{
			"type": "marker",
			"name": "Las Vegas",
			"latitude": "36.1249185",
			"longitude": "-115.130085",
			"time": "",
			"info": "賭城！！這裡的金碧輝煌真的不是假的，每一間酒店錢砸的真的有點誇張啊，各式各樣的風格都有，在賭場內就可以讓你目睹威尼斯的景象，還有特殊機關，讓你天天身處白天。免費的秀，水舞阿，小火山噴發呀！越晚越多人，只能說不夜城這稱號不是浪得虛名。"
		},
		{
			"type": "marker",
			"name": "San Francisco",
			"latitude": "37.7576793",
			"longitude": "-122.4476401",
			"time": "",
			"info": ""
		},
		{
			"type": "marker",
			"name": "Los Angeles",
			"latitude": "34.0201613",
			"longitude": "-118.2619222",
			"time": "",
			"info": "與姊姊會合的第一站，也是我們九天行程的起點與終點。這是我第二次的照訪，對這個地方沒有過多的好惡，不過在住了一天的地方遇到了一對老夫婦，儘管英文不流利，但他們依然走過了美國很多的地方，希望有一天老了，也可以有這樣的勇氣。</br>第一次照訪時，去了杜莎夫人蠟像館、看了中國戲院、走過星光大道，也曾到比佛利找過Hollywood的標誌，不夠近但對我已經足夠。第二次的照訪，到了格里斐斯天文台看夜景，遇到了令人傻眼的Uber司機，把我們丟在半路讓我們自己走上去，快結束時還遇上了遠處的森林大火，差一點下不了山，不過體驗到什麼叫做高級的望遠鏡、也看到了許多新奇的東西和美麗的夜景，也到了蓋地博物館，很大很厲害，風景也一極棒，在這裡看到了梵谷的「鳶尾花」和莫內的真跡！這次的照訪，時間相對多了許多，還去了環球影城，不過與Orlando相比都為之遜色。"
		},
		{
			"type": "marker",
			"name": "Portland",
			"latitude": "45.5433229",
			"longitude": "-122.6945057",
			"time": "10/19 - 10/22, 2017",
			"info": "告別了那些令人驚豔的國家公園，這是九天行程結束後的第一站，有著大城市的規模，卻沒有與之相似的生活步調，倒像是一個鄉村城市，在這個沒有州稅的天堂，有人在完成了第一次美國公路駕駛，租了一輛車，載著我們前往距離市區30幾英里外的outlet購物。在這裡我也看到了二手書的購書天堂，成堆的書架成堆的書就這麼的架在我眼前，可惜英文能力不夠好，不然我可能真的扛了好幾本書回台灣，最後選了一本漫畫和迷霧之子做為我到此一遊的紀念品。在這也造訪了先鋒廣場，看著那個指向不同國家城市的路標，默默地想念著家鄉，思考著6295英里是多麽長的一個的一段距離，而我又是何其幸運的可以擁有這次的照訪。最後搭上了火車，體驗了一次美國鐵路的風情，前往下一個城市。"
		},
		{
			"type": "marker",
			"name": "Seattle",
			"latitude": "47.6129432",
			"longitude": "-122.3621479",
			"time": "10/22 - 10/26, 2017",
			"info": "Sawyer的家鄉，他說西雅圖適合旅遊卻不適合生存。在這裡我們住在一間規矩有點多又很和藹的的外國媽媽的民宿，這一次體驗又到什麼叫做重重的行李，低溫、寒風、下雨再加上上坡，這路程真的艱辛。因為有駕照能開的不想開車，所以我們到不了那令人嚮往已久的國家公園，只能再次地看那相似的城市風景，前往那些著名的景點，看到了西雅圖的標誌「太空針」、看到了令人作噁的口香糖牆、看到了什麼叫做派克市場的拋魚秀，拜訪了華盛頓大學裡那像哈利波特大廳的圖書館，也前往了Bainbridge Island，不過讓我印象最深刻的莫過於那座Gas Work Park，簡直就是一個電影中的蒸氣城，可惜重重鐵網圍住只能遠觀，在西雅圖的幾天裡，就讓我造訪了兩次，寫生也因為受不了低溫而只畫到一半，未完成的畫作現在還躺在我的畫本裡，等待著我去完成。"
		},
		{
			"type": "marker",
			"name": "Burlington",
			"latitude": "44.472569",
			"longitude": "-73.2066883",
			"time": "",
			"info": "意外中的旅行，美洲旅行記原本只應該到溫哥華就已結束，卻因為在惡地時的一個決定造就了我這多出的半個月自己的旅行，雖然多花了許多冤望錢，但卻不令人後悔。</br>在Vermont這段時間裡謝謝家均讓我蹭吃蹭喝蹭睡，百忙之中還不忘照顧我這個學妹。在這裡的我沒有計劃，心血來潮就和家均去上課、逛校園、待圖書館，無聊就自己找個步道路口開始走、又或者是搭公車到市區裡晃晃，生活得十分愜意。在這裡最大的成就，莫過於是登上了Vermont的最高山「Mt. Mansfield」，約高4395呎，一早被帶到入口，沒有裝備就這麼開始了，前半段只是一般小徑即便遍佈薄冰，仍是輕輕鬆鬆，到後面就不是如此了，開始出現的大岩石，和需要攀爬岩石路，一路上原本沒什麼的薄冰，都是後頭恐怖的來源，雖然不至於懸崖峭壁，卻也足夠令人喪膽，走的每一步都要小心為上，因為一個不小心都可能讓摔得你頭破血流，但一路上的辛苦，迎來的真得是壯闊美麗的風景，到最頂點時的那種心情，真的是莫可名狀。"
		},
		{
			"type": "marker",
			"name": "Rapid City",
			"latitude": "44.0694456",
			"longitude": "-103.2326198",
			"time": "",
			"info": "來的次數說多不多，說少不少，不過基本上走得最勤還是Walmart了，畢竟他是我們糧食的來源。它的附近其實有很多有趣的地方，像是曾經夜遊過的Mt.Rushmore，曾經路過的Custer State Park，到現在都還沒建好的Crazy Horse，還有Bear Country，和David最愛的Thai food店。其實還有很多很多的地方都沒有到過，不過我想留下些許的遺憾，或許讓未來的我，還能有機會再次到訪。"
		},
		{
			"type": "marker",
			"name": "Horseshoe Bend &</br> Antelope Canyon",
			"latitude": "36.8790706",
			"longitude": "-111.5189553",
			"time": "",
			"info": "羚羊峽谷，我們在這裡遇到了一個很風趣的導遊，帶著我們參觀，跟我們解說這裡，偶爾還幫我們拍拍照，說說笑話，真的很棒，可惜的是這裡人真的很多，光是排隊進去就等了許久，峽谷的景色壯觀，但卻也很難拍出沒有人擋住的美景。馬蹄灣，另一個上帝之物，真的讓我讚嘆起大自然，雖然我們到達時已經快是夕陽西下時，不過卻仍然擋不住它的風華。"
		},
		{
			"type": "marker",
			"name": "Vancouver",
			"latitude": "49.2577143",
			"longitude": "-123.1539437",
			"time": "10/26 - 10/30, 2017",
			"info": "另外兩個人的美洲最後一站，這裡結束後我們就要暫時向彼此告別了，他們飛回台灣，而我也就要開始自己的另外的20幾天旅程，獨自出發至Vermont的Winooski這個小鎮，找家均！這個季節的溫哥華很美，正直秋冬季節，火紅的楓葉讓整個史丹利公園看起來漂亮極了，美得讓人留戀與此，這裡很大，慢慢逛半天都逛不完，因為時間關係，走到一半遠遠地看到獅門橋後，我們就啟程返回了。</br>全球首座，也還在運行的蒸汽鐘就在溫哥華這個煤氣鎮裡，15分鐘報時一次，到了之後沒等多久就聽到了那報時的神奇的鐘聲、渾厚、蒼老的感覺，再加上這裡一整排復古風味的維多利亞式建築，一切看起來是那麼的美好。"
		},
		{
			"type": "marker",
			"name": "New York",
			"latitude": "40.6971494",
			"longitude": "-73.959867",
			"time": "",
			"info": ""
		},
		{
			"type": "marker",
			"name": "Tampa",
			"latitude": "27.9044116",
			"longitude": "-82.4243664",
			"time": "June, 2015",
			"info": "第一次造訪美國的第一站，也是第一次的Work and Travel，在Busch Gardens這個遊樂園做收銀員，在這裡的每一件事都是第一次，全部都很新鮮，每一天上工都需要很謹慎，因為真的身懷鉅款！在這裡工作不准玩手機的，而我工作的地方也沒有冷氣這回事，夏天的佛羅里達很熱，店後面的小倉庫變成了大家小天地，偷偷地滑著手機，播著周杰倫的歌一邊聽一邊唱給Nichika聽。輪班進攝影棚也是大家最喜歡的事，進去只負責拍照，沒有小朋友還可以和大家聊天玩樂，在這個大遊樂園的小商店裡認識了好玩的Ashlee，可愛的Coralie；在喂小鳥的小區域裡也認識了好多好多的人。放假就進遊樂園裡玩，在這裡的時間裡，玩遍了整個樂園，Falcon's Fury、Cheetan Hunt、Safari Tour，任何一個設施、活動都令人難忘。"
		},
		{
			"type": "marker",
			"name": "Orlando",
			"latitude": "28.4910971",
			"longitude": "-81.3978359",
			"time": "",
			"info": "Orlando，我想2015年的暑假，我可以算是玩遍了這個大城市的著名遊樂園了！環球、迪士尼、海洋世界等。因為在Busch Gardens工作的原因，在某幾個月份去到環球影城是不用門票的，這讓我第一次體驗到了什麼叫做3D雲霄飛車，第一次看到了那些酷炫的電影場景，尤其是那哈利波特樂園，還有霍格華滋特快車，一切都令人興奮無比，台灣樂園與之相比，都為之遜色阿。而Seaworld也是總公司旗下的樂園，因此又再次省下了門票錢，這裡或許沒有Busch Gardens那麼刺激，但是有那令人難忘的海豚秀和虎鯨秀。再來就是那全球最大的迪士尼了，很幸運的剛好找到了當時和我們一樣是WAT的中國學生在這，因次用了Busch Gardens的門票換了便宜迪士尼門票，一群人就在幾天的時間內完遍環球和迪士尼，這裡大概真的是小朋友的天堂了，想要的一切都應有盡有，真的值回票價。"
		},
		{
			"type": "marker",
			"name": "Bryce Canyon",
			"latitude": "37.3054258",
			"longitude": "-112.339674",
			"time": "",
			"info": "在九天行程中，我最喜歡的地點了，相比起南大峽谷，我更加鍾愛這裡，我想我永遠的會記得第一眼看到這景象時的感覺，真的不能只用壯觀來形容。岩石的樣貌，原來可以這麼驚人，這裡的地理結構稱為岩柱（hoodoos），由風、河流裡的水與冰侵蝕和湖床的沉積岩組成，這裡的步道很長，停留的時間不足，無法更加深入的去到他的盡頭，岩石的褐黃色、偶爾枝葉的綠色，再加上天空的湛藍，簡直無可言喻。"
		},
		{
			"type": "marker",
			"name": "Denver",
			"latitude": "39.7642548",
			"longitude": "-104.995196",
			"time": "10/01 - 10/4, 2017",
			"info": "離開惡地的第一站，這第一站到達的不容易，漫漫長路，停靠在夏安時，看見了人生的第一場雨雪，不大，但很美，也在冷得要命的商場克難的過了一夜，抵達後還發現租不了車，兩個人只能拖著重重的行李，一邊淋雨，一邊迷路，跌跌撞撞地找到旅館。</br>因為租不了車，打亂了我們想好的行程，不過我想這就是旅行，前方都一片未知數，解決一個個問題然後繼續出發。在這裡，為了沒手機的我，我們又彎彎拐拐的搭了公車到最近商場去購買手機；我們也看到了歷史悠久的鑄幣廠和州議會的黃金屋頂，逛了16th Street Mall，參加了行程，看到了壯闊的紅石公園，途中也看到了布滿雪的山巒和在惡地看過的成群大野牛。"
		},
		{
			"type": "marker",
			"name": "Weeki Wachee",
			"latitude": "28.5174047",
			"longitude": "-82.5882907",
			"time": "2015",
			"info": "在這裡第一次知道到什麼叫做kayak，雖然因為到達的時間點不對，kayak全數被租借完畢，使得我們只能選擇租借小船，但這一點都不影響到我們體驗那在森林河流中探險的過程，不過大家都是初次划船，一路上真的是彎彎拐拐，一個樹叢撞過一個樹叢，只差沒有翻船了。這裡的河道多變，有時深不見底，有時又清澈見底，在某一段河道時，還幸運地讓我們看到超大隻的Mantee！"
		},
		{
			"type": "marker",
			"name": "Kennedy Space Center",
			"latitude": "28.4906508",
			"longitude": "-80.7920182",
			"time": "2015",
			"info": "甘迺迪太空中心，對於NASA一直有一種嚮往，能到這拜訪一下，真的是超級開心的。雖然他只是我們前往迪士尼的其中一個中途站，不過還是覺得很興奮。不過裡面就是一個博物館，對英文沒有到很好的我來說，就真的只是觀賞觀賞。不過唯一缺點就是這裡真的是偏遠的地方，我們是從市區打Uber坐到這裡來的，結果一個不小心晚到太晚，完全沒有Uber能叫，差點就真的要在這裡露宿街頭了，幸好最後有警衛給了我們叫Shuttle的電話，才得已離開。"
		},
		{
			"type": "marker",
			"name": "Twin Falls & Snake River",
			"latitude": "42.5972299",
			"longitude": "-114.3662673",
			"time": "2017",
			"info": "斯內克河，是美國西北部一條主要河流，也是哥倫比亞河最大的支流。前往黃石公園圖中的一個停靠站，只能說美國國土很大，到處都是不同的景觀地形。"
		}
	]
}